[{"address":"350 Carrall St","City":" Vancouver","FIELD3":" BC V6B 2J3","FIELD4":" BC","FIELD5":"V6B 2J3","FIELD6":" Canada","FIELD7":"","category":"Asian fusion restaurant","claimed":1,"description":"Stylish restaurant offering creative, French-influenced takes on Asian cuisine plus craft cocktails.","extracted_at":"Sun, 13 Feb 2022 20:54:10 GMT","meta":"{\"url\": \"French Vancouver Restaurant\"}","number_reviews":762,"opening_hours":"","phone":"+1 604-620-9400","place_name":"PiDGiN Restaurant","place_url":"https://www.google.com/maps/place/PiDGiN+Restaurant/@49.281881,-123.1063337,17z/data=!3m1!4b1!4m5!3m4!1s0x54867170a751ba8f:0x951b2379aa3905f1!8m2!3d49.2818916!4d-123.1041447?authuser=0&hl=en","plus_code":"7VJW+Q8 Vancouver, British Columbia, Canada","rating":"4.4","services_available":"[\"No-contact delivery\", \"Delivery\", \"Takeaway\", \"Dine-in\"]","start_url":"French Vancouver Restaurant","title":"PiDGiN Restaurant","url":"https://www.google.com/maps/place/PiDGiN+Restaurant/@49.281881,-123.1063337,17z/data=!3m1!4b1!4m5!3m4!1s0x54867170a751ba8f:0x951b2379aa3905f1!8m2!3d49.2818916!4d-123.1041447?authuser=0&hl=en","website":"https://pidginvancouver.com/","newNumber":"+16046209400","address1":"350 Carrall St","city":" Vancouver","state":" BC","terms":{"name":"PiDGiN Restaurant","address":"350 Carrall St","city":"Vancouver","state":"BC"},"id":"H4h_nwZW7f2Yj9ONdzGxHQ"},{"address":"909 Dorchester Ave","City":" Winnipeg","FIELD3":" MB R3M 0P7","FIELD4":" MB","FIELD5":"R3M 0P7","FIELD6":" Canada","FIELD7":"","category":"Asian fusion restaurant","claimed":1,"description":"Cool small-plate restaurant bringing together Chinese, Japanese, Korean & Vietnamese flavors.","extracted_at":"Sun, 13 Feb 2022 21:55:12 GMT","meta":"{\"url\": \"French Winnipeg Restaurant\"}","number_reviews":221,"opening_hours":"[\"Sunday, 5 to 10PM\", \"Monday, Closed\", \"Tuesday, Closed\", \"Wednesday, 5 to 10PM\", \"Thursday, 5 to 10PM\", \"Friday, 5 to 10PM\", \"Saturday, 5 to 10PM\"]","phone":"+1 204-284-3385","place_name":"Máquè","place_url":"https://www.google.com/maps/place/M%C3%A1qu%C3%A8/@49.8699352,-97.1648062,17z/data=!3m1!4b1!4m5!3m4!1s0x52ea740df4084a47:0x52ee389c5a1cfb4a!8m2!3d49.8699352!4d-97.1626175?authuser=0&hl=en","plus_code":"VR9P+XX Winnipeg, Manitoba, Canada","rating":"4.6","services_available":"[\"Takeaway\", \"Dine-in\"]","start_url":"French Winnipeg Restaurant","title":"Máquè","url":"https://www.google.com/maps/place/M%C3%A1qu%C3%A8/@49.8699352,-97.1648062,17z/data=!3m1!4b1!4m5!3m4!1s0x52ea740df4084a47:0x52ee389c5a1cfb4a!8m2!3d49.8699352!4d-97.1626175?authuser=0&hl=en","website":"https://maque.ca/","newNumber":"+12042843385","address1":"909 Dorchester Ave","city":" Winnipeg","state":" MB","terms":{"name":"Máquè","address":"909 Dorchester Ave","city":"Winnipeg","state":"MB"},"id":"2_6vJ5rvwtbcmIsSKteIYA"},{"address":"2900 Pandosy St #101","City":" Kelowna","FIELD3":" BC V1Y 1V9","FIELD4":" BC","FIELD5":"V1Y 1V9","FIELD6":" Canada","FIELD7":"","category":"Asian fusion restaurant","claimed":1,"description":"Buzzy Asian fusion cafe serving health-conscious fare in a lofty, light-filled space lined with art.","extracted_at":"Mon, 14 Feb 2022 01:37:45 GMT","meta":"{\"url\": \"French Kelowna Grocery\"}","number_reviews":187,"opening_hours":"","phone":"+1 778-478-0458","place_name":"Soy Asian Fusion Restaurant","place_url":"https://www.google.com/maps/place/Soy+Asian+Fusion+Restaurant/@49.864514,-119.4937827,17z/data=!3m1!4b1!4m5!3m4!1s0x537d8b45fcc72f8d:0xfeecf70bcb426607!8m2!3d49.864514!4d-119.491594?authuser=0&hl=en","plus_code":"VG75+R9 Kelowna, British Columbia, Canada","rating":"4.6","services_available":"[\"Delivery\", \"Takeaway\", \"Dine-in\"]","start_url":"French Kelowna Grocery","title":"Soy Asian Fusion Restaurant","url":"https://www.google.com/maps/place/Soy+Asian+Fusion+Restaurant/@49.864514,-119.4937827,17z/data=!3m1!4b1!4m5!3m4!1s0x537d8b45fcc72f8d:0xfeecf70bcb426607!8m2!3d49.864514!4d-119.491594?authuser=0&hl=en","website":"https://soyasianfusion.com/","newNumber":"+17784780458","address1":"2900 Pandosy St #101","city":" Kelowna","state":" BC","terms":{"name":"Soy Asian Fusion Restaurant","address":"2900 Pandosy St #101","city":"Kelowna","state":"BC"},"id":"IQ0MVf1Lq8S7coXavo5_rQ"},"ExotiQua","MyLahore Bradford Delivery","Boulangerie Lascombes Jérôme","Anita’s Bread & Coffee","Ca Croustille, No Store Front (Pre-Orders)",{"address":"Willows Market","City":" 2266 S Island Hwy #103","FIELD3":" Campbell River","FIELD4":" Ca","FIELD5":"l River","FIELD6":" BC V9W 1C3","FIELD7":" Canada","category":"Bakery","claimed":1,"description":"","extracted_at":"Mon, 14 Feb 2022 20:16:47 GMT","meta":"{\"url\": \"French Campbell River Bakery\"}","number_reviews":180,"opening_hours":"[\"Monday, Closed\", \"Tuesday, 9am to 5pm\", \"Wednesday, 9am to 5pm\", \"Thursday, 9am to 5pm\", \"Friday, 9am to 5pm\", \"Saturday, 9am to 4pm\", \"Sunday, Closed\"]","phone":"+1 250-923-4000","place_name":"Daves' Bakery","place_url":"https://www.google.com/maps/place/Daves'+Bakery/@49.9699787,-125.2175036,17z/data=!3m1!4b1!4m5!3m4!1s0x5462a8869fb42bdf:0x497221232e065f1f!8m2!3d49.9700459!4d-125.215245?authuser=0&hl=en","plus_code":"XQ9M+XV Campbell River, British Columbia, Canada","rating":"4.7","services_available":"[\"In-store pick-up\", \"In-store shopping\", \"Takeaway\", \"Dine-in\"]","start_url":"French Campbell River Bakery","title":"Daves' Bakery","url":"https://www.google.com/maps/place/Daves'+Bakery/@49.9699787,-125.2175036,17z/data=!3m1!4b1!4m5!3m4!1s0x5462a8869fb42bdf:0x497221232e065f1f!8m2!3d49.9700459!4d-125.215245?authuser=0&hl=en","website":"https://davesbakery.ca/","newNumber":"+12509234000","address1":"Willows Market","city":" 2266 S Island Hwy #103","state":" Ca","terms":{"name":"Daves' Bakery","address":"Willows Market","city":"2266 S Island Hwy #103","state":"CA"},"id":"ffyYdXn-KycN0o0iuhTWLw"}]